[
  {
    "location_tag": "verona",
    "positive_ratio": 0.625,
    "negative_ratio": 0.0,
    "neutral_ratio": 0.375,
    "overall_sentiment": 0.5138854384422302,
    "avg_confidence": 0.74347884953022,
    "total_entries": 8,
    "low_confidence": true,
    "lat": 42.9919,
    "lon": -89.5332
  },
  {
    "location_tag": "fish hatchery",
    "positive_ratio": 0.5,
    "negative_ratio": 0.0,
    "neutral_ratio": 0.5,
    "overall_sentiment": 0.4726265072822571,
    "avg_confidence": 0.8736453652381897,
    "total_entries": 2,
    "low_confidence": true,
    "lat": 43.04,
    "lon": -89.39
  },
  {
    "location_tag": "park street",
    "positive_ratio": 0.5,
    "negative_ratio": 0.0,
    "neutral_ratio": 0.5,
    "overall_sentiment": 0.3611173629760742,
    "avg_confidence": 0.7174915969371796,
    "total_entries": 2,
    "low_confidence": true,
    "lat": 43.055,
    "lon": -89.39
  },
  {
    "location_tag": "cottage grove",
    "positive_ratio": 0.4,
    "negative_ratio": 0.0,
    "neutral_ratio": 0.6,
    "overall_sentiment": 0.347125506401062,
    "avg_confidence": 0.8398015379905701,
    "total_entries": 5,
    "low_confidence": true,
    "lat": 43.0761,
    "lon": -89.1996
  },
  {
    "location_tag": "north side",
    "positive_ratio": 0.5,
    "negative_ratio": 0.125,
    "neutral_ratio": 0.375,
    "overall_sentiment": 0.3358246460556984,
    "avg_confidence": 0.7969330996274948,
    "total_entries": 8,
    "low_confidence": true,
    "lat": 43.11,
    "lon": -89.38
  },
  {
    "location_tag": "camp randall",
    "positive_ratio": 0.4705882352941176,
    "negative_ratio": 0.1176470588235294,
    "neutral_ratio": 0.4117647058823529,
    "overall_sentiment": 0.3249232120373669,
    "avg_confidence": 0.7556691923562218,
    "total_entries": 17,
    "low_confidence": false,
    "lat": 43.07,
    "lon": -89.4128
  },
  {
    "location_tag": "monona",
    "positive_ratio": 0.4411764705882353,
    "negative_ratio": 0.1176470588235294,
    "neutral_ratio": 0.4411764705882353,
    "overall_sentiment": 0.3155463162590475,
    "avg_confidence": 0.756072948084158,
    "total_entries": 34,
    "low_confidence": false,
    "lat": 43.062,
    "lon": -89.334
  },
  {
    "location_tag": "monroe street",
    "positive_ratio": 0.4631578947368421,
    "negative_ratio": 0.0736842105263157,
    "neutral_ratio": 0.4631578947368421,
    "overall_sentiment": 0.3048115664406826,
    "avg_confidence": 0.7739644006678933,
    "total_entries": 95,
    "low_confidence": false,
    "lat": 43.0505,
    "lon": -89.4076
  },
  {
    "location_tag": "middleton",
    "positive_ratio": 0.4444444444444444,
    "negative_ratio": 0.1111111111111111,
    "neutral_ratio": 0.4444444444444444,
    "overall_sentiment": 0.2939425880710284,
    "avg_confidence": 0.7456181587444412,
    "total_entries": 36,
    "low_confidence": false,
    "lat": 43.0972,
    "lon": -89.5043
  },
  {
    "location_tag": "junction",
    "positive_ratio": 0.4615384615384615,
    "negative_ratio": 0.2307692307692307,
    "neutral_ratio": 0.3076923076923077,
    "overall_sentiment": 0.251732390660506,
    "avg_confidence": 0.7742265737973727,
    "total_entries": 13,
    "low_confidence": false,
    "lat": 43.064,
    "lon": -89.51
  },
  {
    "location_tag": "capitol square",
    "positive_ratio": 0.4166666666666667,
    "negative_ratio": 0.1666666666666666,
    "neutral_ratio": 0.4166666666666667,
    "overall_sentiment": 0.2204480270544687,
    "avg_confidence": 0.739844024181366,
    "total_entries": 24,
    "low_confidence": false,
    "lat": 43.0748,
    "lon": -89.3839
  },
  {
    "location_tag": "isthmus",
    "positive_ratio": 0.25,
    "negative_ratio": 0.0625,
    "neutral_ratio": 0.6875,
    "overall_sentiment": 0.1608314178884029,
    "avg_confidence": 0.7579403668642044,
    "total_entries": 16,
    "low_confidence": false,
    "lat": 43.075,
    "lon": -89.39
  },
  {
    "location_tag": "atwood",
    "positive_ratio": 0.2865168539325842,
    "negative_ratio": 0.1123595505617977,
    "neutral_ratio": 0.601123595505618,
    "overall_sentiment": 0.1583060963769977,
    "avg_confidence": 0.7711552252595344,
    "total_entries": 178,
    "low_confidence": false,
    "lat": 43.0652,
    "lon": -89.3621
  },
  {
    "location_tag": "willy street",
    "positive_ratio": 0.297752808988764,
    "negative_ratio": 0.1685393258426966,
    "neutral_ratio": 0.5337078651685393,
    "overall_sentiment": 0.1339458809809738,
    "avg_confidence": 0.7680475949571374,
    "total_entries": 178,
    "low_confidence": false,
    "lat": 43.0669,
    "lon": -89.3704
  },
  {
    "location_tag": "hilldale",
    "positive_ratio": 0.3636363636363636,
    "negative_ratio": 0.1818181818181818,
    "neutral_ratio": 0.4545454545454545,
    "overall_sentiment": 0.1302752061323686,
    "avg_confidence": 0.6810460415753451,
    "total_entries": 11,
    "low_confidence": false,
    "lat": 43.073,
    "lon": -89.45
  },
  {
    "location_tag": "downtown",
    "positive_ratio": 0.3079906904577191,
    "negative_ratio": 0.1691233514352211,
    "neutral_ratio": 0.5228859581070597,
    "overall_sentiment": 0.1244365375711531,
    "avg_confidence": 0.7347804007602349,
    "total_entries": 1289,
    "low_confidence": false,
    "lat": 43.074,
    "lon": -89.384
  },
  {
    "location_tag": "west side",
    "positive_ratio": 0.2815533980582524,
    "negative_ratio": 0.1585760517799352,
    "neutral_ratio": 0.5598705501618123,
    "overall_sentiment": 0.1068028513474757,
    "avg_confidence": 0.7283754581193708,
    "total_entries": 309,
    "low_confidence": false,
    "lat": 43.065,
    "lon": -89.48
  },
  {
    "location_tag": "tenney",
    "positive_ratio": 0.1666666666666666,
    "negative_ratio": 0.0,
    "neutral_ratio": 0.8333333333333334,
    "overall_sentiment": 0.103728969891866,
    "avg_confidence": 0.6943849424521128,
    "total_entries": 6,
    "low_confidence": true,
    "lat": 43.085,
    "lon": -89.37
  },
  {
    "location_tag": "east side",
    "positive_ratio": 0.29004329004329,
    "negative_ratio": 0.1731601731601731,
    "neutral_ratio": 0.5367965367965368,
    "overall_sentiment": 0.0989431638222236,
    "avg_confidence": 0.741706255968515,
    "total_entries": 231,
    "low_confidence": false,
    "lat": 43.075,
    "lon": -89.33
  },
  {
    "location_tag": "campus",
    "positive_ratio": 0.2761904761904762,
    "negative_ratio": 0.1523809523809524,
    "neutral_ratio": 0.5714285714285714,
    "overall_sentiment": 0.0853113997550237,
    "avg_confidence": 0.7075994687420981,
    "total_entries": 105,
    "low_confidence": false,
    "lat": 43.0766,
    "lon": -89.4125
  },
  {
    "location_tag": "fitchburg",
    "positive_ratio": 0.2307692307692307,
    "negative_ratio": 0.1923076923076923,
    "neutral_ratio": 0.5769230769230769,
    "overall_sentiment": 0.0607114227918478,
    "avg_confidence": 0.7320368232635351,
    "total_entries": 26,
    "low_confidence": false,
    "lat": 42.9609,
    "lon": -89.4237
  },
  {
    "location_tag": "sun prairie",
    "positive_ratio": 0.3076923076923077,
    "negative_ratio": 0.3076923076923077,
    "neutral_ratio": 0.3846153846153846,
    "overall_sentiment": 0.0603049076520479,
    "avg_confidence": 0.6745644991214459,
    "total_entries": 13,
    "low_confidence": false,
    "lat": 43.1836,
    "lon": -89.2137
  },
  {
    "location_tag": "marquette",
    "positive_ratio": 0.1428571428571428,
    "negative_ratio": 0.1428571428571428,
    "neutral_ratio": 0.7142857142857143,
    "overall_sentiment": 0.0363118989127022,
    "avg_confidence": 0.762065759726933,
    "total_entries": 7,
    "low_confidence": true,
    "lat": 43.08,
    "lon": -89.365
  },
  {
    "location_tag": "general madison",
    "positive_ratio": 0.2621154656552886,
    "negative_ratio": 0.2836072482090181,
    "neutral_ratio": 0.4542772861356932,
    "overall_sentiment": 0.0066196477920557,
    "avg_confidence": 0.7210378272594704,
    "total_entries": 2373,
    "low_confidence": false,
    "lat": 43.0731,
    "lon": -89.4012
  },
  {
    "location_tag": "south side",
    "positive_ratio": 0.0,
    "negative_ratio": 0.0,
    "neutral_ratio": 1.0,
    "overall_sentiment": 0.0,
    "avg_confidence": 0.7551422715187073,
    "total_entries": 3,
    "low_confidence": true,
    "lat": 43.03,
    "lon": -89.38
  },
  {
    "location_tag": "waunakee",
    "positive_ratio": 0.0,
    "negative_ratio": 0.0,
    "neutral_ratio": 1.0,
    "overall_sentiment": 0.0,
    "avg_confidence": 0.684102455774943,
    "total_entries": 3,
    "low_confidence": true,
    "lat": 43.1919,
    "lon": -89.4554
  },
  {
    "location_tag": "east washington",
    "positive_ratio": 0.1532846715328467,
    "negative_ratio": 0.2408759124087591,
    "neutral_ratio": 0.6058394160583942,
    "overall_sentiment": -0.0373011272754112,
    "avg_confidence": 0.7317976679680122,
    "total_entries": 137,
    "low_confidence": false,
    "lat": 43.0789,
    "lon": -89.3532
  },
  {
    "location_tag": "deforest",
    "positive_ratio": 0.0,
    "negative_ratio": 0.2,
    "neutral_ratio": 0.8,
    "overall_sentiment": -0.0989664256572723,
    "avg_confidence": 0.7502781212329864,
    "total_entries": 5,
    "low_confidence": true,
    "lat": 43.2478,
    "lon": -89.3473
  },
  {
    "location_tag": "vilas",
    "positive_ratio": 0.0,
    "negative_ratio": 0.2,
    "neutral_ratio": 0.8,
    "overall_sentiment": -0.118257987499237,
    "avg_confidence": 0.6815717339515686,
    "total_entries": 5,
    "low_confidence": true,
    "lat": 43.055,
    "lon": -89.41
  }
]