[
  {
    "location_tag": "monroe street",
    "business_type": "coffee shop",
    "positive_ratio": 1.0,
    "negative_ratio": 0.0,
    "neutral_ratio": 0.0,
    "overall_sentiment": 0.9833760857582092,
    "avg_confidence": 0.9833760857582092,
    "total_entries": 1,
    "low_confidence": true,
    "lat": 43.0505,
    "lon": -89.4076
  },
  {
    "location_tag": "camp randall",
    "business_type": "late night food",
    "positive_ratio": 1.0,
    "negative_ratio": 0.0,
    "neutral_ratio": 0.0,
    "overall_sentiment": 0.9807125329971312,
    "avg_confidence": 0.9807125329971312,
    "total_entries": 1,
    "low_confidence": true,
    "lat": 43.07,
    "lon": -89.4128
  },
  {
    "location_tag": "verona",
    "business_type": "pharmacy",
    "positive_ratio": 1.0,
    "negative_ratio": 0.0,
    "neutral_ratio": 0.0,
    "overall_sentiment": 0.974949836730957,
    "avg_confidence": 0.974949836730957,
    "total_entries": 1,
    "low_confidence": true,
    "lat": 42.9919,
    "lon": -89.5332
  },
  {
    "location_tag": "sun prairie",
    "business_type": "restaurant",
    "positive_ratio": 1.0,
    "negative_ratio": 0.0,
    "neutral_ratio": 0.0,
    "overall_sentiment": 0.9675508737564088,
    "avg_confidence": 0.9675508737564088,
    "total_entries": 1,
    "low_confidence": true,
    "lat": 43.1836,
    "lon": -89.2137
  },
  {
    "location_tag": "west side",
    "business_type": "convenience store",
    "positive_ratio": 1.0,
    "negative_ratio": 0.0,
    "neutral_ratio": 0.0,
    "overall_sentiment": 0.9570735692977904,
    "avg_confidence": 0.9570735692977904,
    "total_entries": 1,
    "low_confidence": true,
    "lat": 43.065,
    "lon": -89.48
  },
  {
    "location_tag": "fish hatchery",
    "business_type": "bar",
    "positive_ratio": 1.0,
    "negative_ratio": 0.0,
    "neutral_ratio": 0.0,
    "overall_sentiment": 0.9452530145645142,
    "avg_confidence": 0.9452530145645142,
    "total_entries": 1,
    "low_confidence": true,
    "lat": 43.04,
    "lon": -89.39
  },
  {
    "location_tag": "verona",
    "business_type": "bakery",
    "positive_ratio": 1.0,
    "negative_ratio": 0.0,
    "neutral_ratio": 0.0,
    "overall_sentiment": 0.9413729310035706,
    "avg_confidence": 0.9413729310035706,
    "total_entries": 1,
    "low_confidence": true,
    "lat": 42.9919,
    "lon": -89.5332
  },
  {
    "location_tag": "capitol square",
    "business_type": "gym",
    "positive_ratio": 1.0,
    "negative_ratio": 0.0,
    "neutral_ratio": 0.0,
    "overall_sentiment": 0.9343574643135072,
    "avg_confidence": 0.9343574643135072,
    "total_entries": 1,
    "low_confidence": true,
    "lat": 43.0748,
    "lon": -89.3839
  },
  {
    "location_tag": "isthmus",
    "business_type": "coworking space",
    "positive_ratio": 1.0,
    "negative_ratio": 0.0,
    "neutral_ratio": 0.0,
    "overall_sentiment": 0.9257141947746276,
    "avg_confidence": 0.9257141947746276,
    "total_entries": 1,
    "low_confidence": true,
    "lat": 43.075,
    "lon": -89.39
  },
  {
    "location_tag": "north side",
    "business_type": "gym",
    "positive_ratio": 1.0,
    "negative_ratio": 0.0,
    "neutral_ratio": 0.0,
    "overall_sentiment": 0.9256383776664734,
    "avg_confidence": 0.9256383776664734,
    "total_entries": 1,
    "low_confidence": true,
    "lat": 43.11,
    "lon": -89.38
  },
  {
    "location_tag": "monona",
    "business_type": "coffee shop",
    "positive_ratio": 1.0,
    "negative_ratio": 0.0,
    "neutral_ratio": 0.0,
    "overall_sentiment": 0.9075408577919006,
    "avg_confidence": 0.9075408577919006,
    "total_entries": 1,
    "low_confidence": true,
    "lat": 43.062,
    "lon": -89.334
  },
  {
    "location_tag": "camp randall",
    "business_type": "convenience store",
    "positive_ratio": 1.0,
    "negative_ratio": 0.0,
    "neutral_ratio": 0.0,
    "overall_sentiment": 0.8938234448432922,
    "avg_confidence": 0.8938234448432922,
    "total_entries": 1,
    "low_confidence": true,
    "lat": 43.07,
    "lon": -89.4128
  },
  {
    "location_tag": "isthmus",
    "business_type": "bakery",
    "positive_ratio": 1.0,
    "negative_ratio": 0.0,
    "neutral_ratio": 0.0,
    "overall_sentiment": 0.8896471261978149,
    "avg_confidence": 0.8896471261978149,
    "total_entries": 1,
    "low_confidence": true,
    "lat": 43.075,
    "lon": -89.39
  },
  {
    "location_tag": "verona",
    "business_type": "bar",
    "positive_ratio": 1.0,
    "negative_ratio": 0.0,
    "neutral_ratio": 0.0,
    "overall_sentiment": 0.8685715198516846,
    "avg_confidence": 0.8685715198516846,
    "total_entries": 1,
    "low_confidence": true,
    "lat": 42.9919,
    "lon": -89.5332
  },
  {
    "location_tag": "junction",
    "business_type": "grocery store",
    "positive_ratio": 1.0,
    "negative_ratio": 0.0,
    "neutral_ratio": 0.0,
    "overall_sentiment": 0.8416725695133209,
    "avg_confidence": 0.8416725695133209,
    "total_entries": 2,
    "low_confidence": true,
    "lat": 43.064,
    "lon": -89.51
  },
  {
    "location_tag": "sun prairie",
    "business_type": "coffee shop",
    "positive_ratio": 1.0,
    "negative_ratio": 0.0,
    "neutral_ratio": 0.0,
    "overall_sentiment": 0.8126738667488098,
    "avg_confidence": 0.8126738667488098,
    "total_entries": 1,
    "low_confidence": true,
    "lat": 43.1836,
    "lon": -89.2137
  },
  {
    "location_tag": "middleton",
    "business_type": "restaurant",
    "positive_ratio": 0.8333333333333334,
    "negative_ratio": 0.0,
    "neutral_ratio": 0.1666666666666666,
    "overall_sentiment": 0.7915340562661489,
    "avg_confidence": 0.9252924919128418,
    "total_entries": 6,
    "low_confidence": true,
    "lat": 43.0972,
    "lon": -89.5043
  },
  {
    "location_tag": "east side",
    "business_type": "bakery",
    "positive_ratio": 1.0,
    "negative_ratio": 0.0,
    "neutral_ratio": 0.0,
    "overall_sentiment": 0.7399829030036926,
    "avg_confidence": 0.7399829030036926,
    "total_entries": 2,
    "low_confidence": true,
    "lat": 43.075,
    "lon": -89.33
  },
  {
    "location_tag": "hilldale",
    "business_type": "restaurant",
    "positive_ratio": 1.0,
    "negative_ratio": 0.0,
    "neutral_ratio": 0.0,
    "overall_sentiment": 0.7336359024047852,
    "avg_confidence": 0.7336359024047852,
    "total_entries": 2,
    "low_confidence": true,
    "lat": 43.073,
    "lon": -89.45
  },
  {
    "location_tag": "park street",
    "business_type": "bakery",
    "positive_ratio": 1.0,
    "negative_ratio": 0.0,
    "neutral_ratio": 0.0,
    "overall_sentiment": 0.7222347259521484,
    "avg_confidence": 0.7222347259521484,
    "total_entries": 1,
    "low_confidence": true,
    "lat": 43.055,
    "lon": -89.39
  },
  {
    "location_tag": "monona",
    "business_type": "bakery",
    "positive_ratio": 0.75,
    "negative_ratio": 0.0,
    "neutral_ratio": 0.25,
    "overall_sentiment": 0.6950143501162529,
    "avg_confidence": 0.8736264929175377,
    "total_entries": 16,
    "low_confidence": false,
    "lat": 43.062,
    "lon": -89.334
  },
  {
    "location_tag": "capitol square",
    "business_type": "coffee shop",
    "positive_ratio": 0.75,
    "negative_ratio": 0.0,
    "neutral_ratio": 0.25,
    "overall_sentiment": 0.6505415439605713,
    "avg_confidence": 0.8404020816087723,
    "total_entries": 4,
    "low_confidence": true,
    "lat": 43.0748,
    "lon": -89.3839
  },
  {
    "location_tag": "camp randall",
    "business_type": "restaurant",
    "positive_ratio": 1.0,
    "negative_ratio": 0.0,
    "neutral_ratio": 0.0,
    "overall_sentiment": 0.6412187218666077,
    "avg_confidence": 0.6412187218666077,
    "total_entries": 1,
    "low_confidence": true,
    "lat": 43.07,
    "lon": -89.4128
  },
  {
    "location_tag": "monroe street",
    "business_type": "gym",
    "positive_ratio": 0.6666666666666666,
    "negative_ratio": 0.0,
    "neutral_ratio": 0.3333333333333333,
    "overall_sentiment": 0.6315827369689941,
    "avg_confidence": 0.9061731100082396,
    "total_entries": 3,
    "low_confidence": true,
    "lat": 43.0505,
    "lon": -89.4076
  },
  {
    "location_tag": "fitchburg",
    "business_type": "restaurant",
    "positive_ratio": 1.0,
    "negative_ratio": 0.0,
    "neutral_ratio": 0.0,
    "overall_sentiment": 0.6279228329658508,
    "avg_confidence": 0.6279228329658508,
    "total_entries": 1,
    "low_confidence": true,
    "lat": 42.9609,
    "lon": -89.4237
  },
  {
    "location_tag": "verona",
    "business_type": "general business",
    "positive_ratio": 1.0,
    "negative_ratio": 0.0,
    "neutral_ratio": 0.0,
    "overall_sentiment": 0.6193283200263977,
    "avg_confidence": 0.6193283200263977,
    "total_entries": 1,
    "low_confidence": true,
    "lat": 42.9919,
    "lon": -89.5332
  },
  {
    "location_tag": "hilldale",
    "business_type": "gym",
    "positive_ratio": 1.0,
    "negative_ratio": 0.0,
    "neutral_ratio": 0.0,
    "overall_sentiment": 0.6126024723052979,
    "avg_confidence": 0.6126024723052979,
    "total_entries": 1,
    "low_confidence": true,
    "lat": 43.073,
    "lon": -89.45
  },
  {
    "location_tag": "monroe street",
    "business_type": "convenience store",
    "positive_ratio": 1.0,
    "negative_ratio": 0.0,
    "neutral_ratio": 0.0,
    "overall_sentiment": 0.6083486080169678,
    "avg_confidence": 0.6083486080169678,
    "total_entries": 1,
    "low_confidence": true,
    "lat": 43.0505,
    "lon": -89.4076
  },
  {
    "location_tag": "monroe street",
    "business_type": "late night food",
    "positive_ratio": 0.6666666666666666,
    "negative_ratio": 0.0,
    "neutral_ratio": 0.3333333333333333,
    "overall_sentiment": 0.6019994417826334,
    "avg_confidence": 0.8967007795969645,
    "total_entries": 3,
    "low_confidence": true,
    "lat": 43.0505,
    "lon": -89.4076
  },
  {
    "location_tag": "junction",
    "business_type": "gym",
    "positive_ratio": 1.0,
    "negative_ratio": 0.0,
    "neutral_ratio": 0.0,
    "overall_sentiment": 0.5916265845298767,
    "avg_confidence": 0.5916265845298767,
    "total_entries": 1,
    "low_confidence": true,
    "lat": 43.064,
    "lon": -89.51
  },
  {
    "location_tag": "east side",
    "business_type": "coworking space",
    "positive_ratio": 0.6666666666666666,
    "negative_ratio": 0.0,
    "neutral_ratio": 0.3333333333333333,
    "overall_sentiment": 0.5709876616795858,
    "avg_confidence": 0.8584846258163452,
    "total_entries": 3,
    "low_confidence": true,
    "lat": 43.075,
    "lon": -89.33
  },
  {
    "location_tag": "middleton",
    "business_type": "grocery store",
    "positive_ratio": 1.0,
    "negative_ratio": 0.0,
    "neutral_ratio": 0.0,
    "overall_sentiment": 0.5455768704414368,
    "avg_confidence": 0.5455768704414368,
    "total_entries": 1,
    "low_confidence": true,
    "lat": 43.0972,
    "lon": -89.5043
  },
  {
    "location_tag": "monroe street",
    "business_type": "grocery store",
    "positive_ratio": 0.6,
    "negative_ratio": 0.0,
    "neutral_ratio": 0.4,
    "overall_sentiment": 0.5291301250457764,
    "avg_confidence": 0.8462481617927551,
    "total_entries": 5,
    "low_confidence": true,
    "lat": 43.0505,
    "lon": -89.4076
  },
  {
    "location_tag": "fitchburg",
    "business_type": "coffee shop",
    "positive_ratio": 0.5,
    "negative_ratio": 0.0,
    "neutral_ratio": 0.5,
    "overall_sentiment": 0.4939676523208618,
    "avg_confidence": 0.8989382386207581,
    "total_entries": 2,
    "low_confidence": true,
    "lat": 42.9609,
    "lon": -89.4237
  },
  {
    "location_tag": "capitol square",
    "business_type": "restaurant",
    "positive_ratio": 0.6666666666666666,
    "negative_ratio": 0.0,
    "neutral_ratio": 0.3333333333333333,
    "overall_sentiment": 0.4881103237469991,
    "avg_confidence": 0.6855618556340536,
    "total_entries": 3,
    "low_confidence": true,
    "lat": 43.0748,
    "lon": -89.3839
  },
  {
    "location_tag": "monroe street",
    "business_type": "pharmacy",
    "positive_ratio": 0.6666666666666666,
    "negative_ratio": 0.0,
    "neutral_ratio": 0.3333333333333333,
    "overall_sentiment": 0.4874587456385295,
    "avg_confidence": 0.7762613495190939,
    "total_entries": 3,
    "low_confidence": true,
    "lat": 43.0505,
    "lon": -89.4076
  },
  {
    "location_tag": "marquette",
    "business_type": "coffee shop",
    "positive_ratio": 0.5,
    "negative_ratio": 0.0,
    "neutral_ratio": 0.5,
    "overall_sentiment": 0.4851590692996979,
    "avg_confidence": 0.849007785320282,
    "total_entries": 2,
    "low_confidence": true,
    "lat": 43.08,
    "lon": -89.365
  },
  {
    "location_tag": "fitchburg",
    "business_type": "bakery",
    "positive_ratio": 0.5,
    "negative_ratio": 0.0,
    "neutral_ratio": 0.5,
    "overall_sentiment": 0.4850343465805054,
    "avg_confidence": 0.951648235321045,
    "total_entries": 2,
    "low_confidence": true,
    "lat": 42.9609,
    "lon": -89.4237
  },
  {
    "location_tag": "middleton",
    "business_type": "bakery",
    "positive_ratio": 0.5,
    "negative_ratio": 0.0,
    "neutral_ratio": 0.5,
    "overall_sentiment": 0.4811892509460449,
    "avg_confidence": 0.8207714855670929,
    "total_entries": 2,
    "low_confidence": true,
    "lat": 43.0972,
    "lon": -89.5043
  },
  {
    "location_tag": "junction",
    "business_type": "restaurant",
    "positive_ratio": 0.5,
    "negative_ratio": 0.0,
    "neutral_ratio": 0.5,
    "overall_sentiment": 0.4742203056812286,
    "avg_confidence": 0.8140228986740112,
    "total_entries": 2,
    "low_confidence": true,
    "lat": 43.064,
    "lon": -89.51
  },
  {
    "location_tag": "camp randall",
    "business_type": "bar",
    "positive_ratio": 0.6,
    "negative_ratio": 0.0,
    "neutral_ratio": 0.4,
    "overall_sentiment": 0.4626489281654358,
    "avg_confidence": 0.8318952560424805,
    "total_entries": 5,
    "low_confidence": true,
    "lat": 43.07,
    "lon": -89.4128
  },
  {
    "location_tag": "west side",
    "business_type": "coffee shop",
    "positive_ratio": 0.5714285714285714,
    "negative_ratio": 0.0,
    "neutral_ratio": 0.4285714285714285,
    "overall_sentiment": 0.4609677791595459,
    "avg_confidence": 0.7513967539582934,
    "total_entries": 7,
    "low_confidence": true,
    "lat": 43.065,
    "lon": -89.48
  },
  {
    "location_tag": "west side",
    "business_type": "restaurant",
    "positive_ratio": 0.625,
    "negative_ratio": 0.0833333333333333,
    "neutral_ratio": 0.2916666666666667,
    "overall_sentiment": 0.4563771846393744,
    "avg_confidence": 0.7822137934466203,
    "total_entries": 24,
    "low_confidence": false,
    "lat": 43.065,
    "lon": -89.48
  },
  {
    "location_tag": "east washington",
    "business_type": "coffee shop",
    "positive_ratio": 0.5,
    "negative_ratio": 0.0,
    "neutral_ratio": 0.5,
    "overall_sentiment": 0.4355629235506058,
    "avg_confidence": 0.74178646504879,
    "total_entries": 4,
    "low_confidence": true,
    "lat": 43.0789,
    "lon": -89.3532
  },
  {
    "location_tag": "cottage grove",
    "business_type": "bar",
    "positive_ratio": 0.5,
    "negative_ratio": 0.0,
    "neutral_ratio": 0.5,
    "overall_sentiment": 0.4339068830013275,
    "avg_confidence": 0.8283786326646805,
    "total_entries": 4,
    "low_confidence": true,
    "lat": 43.0761,
    "lon": -89.1996
  },
  {
    "location_tag": "campus",
    "business_type": "hardware store",
    "positive_ratio": 0.5,
    "negative_ratio": 0.0,
    "neutral_ratio": 0.5,
    "overall_sentiment": 0.4305469095706939,
    "avg_confidence": 0.8165775835514069,
    "total_entries": 2,
    "low_confidence": true,
    "lat": 43.0766,
    "lon": -89.4125
  },
  {
    "location_tag": "willy street",
    "business_type": "coffee shop",
    "positive_ratio": 0.6,
    "negative_ratio": 0.0,
    "neutral_ratio": 0.4,
    "overall_sentiment": 0.4026461482048035,
    "avg_confidence": 0.7491794347763061,
    "total_entries": 5,
    "low_confidence": true,
    "lat": 43.0669,
    "lon": -89.3704
  },
  {
    "location_tag": "east side",
    "business_type": "restaurant",
    "positive_ratio": 0.4545454545454545,
    "negative_ratio": 0.0,
    "neutral_ratio": 0.5454545454545454,
    "overall_sentiment": 0.3901735544204712,
    "avg_confidence": 0.7615906379439614,
    "total_entries": 22,
    "low_confidence": false,
    "lat": 43.075,
    "lon": -89.33
  },
  {
    "location_tag": "campus",
    "business_type": "late night food",
    "positive_ratio": 0.5,
    "negative_ratio": 0.0,
    "neutral_ratio": 0.5,
    "overall_sentiment": 0.3791894614696502,
    "avg_confidence": 0.8426169157028198,
    "total_entries": 2,
    "low_confidence": true,
    "lat": 43.0766,
    "lon": -89.4125
  },
  {
    "location_tag": "monroe street",
    "business_type": "coworking space",
    "positive_ratio": 0.5,
    "negative_ratio": 0.0,
    "neutral_ratio": 0.5,
    "overall_sentiment": 0.3778764307498932,
    "avg_confidence": 0.6636420786380768,
    "total_entries": 2,
    "low_confidence": true,
    "lat": 43.0505,
    "lon": -89.4076
  },
  {
    "location_tag": "downtown",
    "business_type": "convenience store",
    "positive_ratio": 0.5,
    "negative_ratio": 0.0,
    "neutral_ratio": 0.5,
    "overall_sentiment": 0.3768414855003357,
    "avg_confidence": 0.7913953810930252,
    "total_entries": 4,
    "low_confidence": true,
    "lat": 43.074,
    "lon": -89.384
  },
  {
    "location_tag": "camp randall",
    "business_type": "coffee shop",
    "positive_ratio": 0.5,
    "negative_ratio": 0.0,
    "neutral_ratio": 0.5,
    "overall_sentiment": 0.3716835975646972,
    "avg_confidence": 0.7892856597900391,
    "total_entries": 2,
    "low_confidence": true,
    "lat": 43.07,
    "lon": -89.4128
  },
  {
    "location_tag": "monroe street",
    "business_type": "bar",
    "positive_ratio": 0.5161290322580645,
    "negative_ratio": 0.064516129032258,
    "neutral_ratio": 0.4193548387096774,
    "overall_sentiment": 0.366513830038809,
    "avg_confidence": 0.7699899260074862,
    "total_entries": 31,
    "low_confidence": false,
    "lat": 43.0505,
    "lon": -89.4076
  },
  {
    "location_tag": "downtown",
    "business_type": "bakery",
    "positive_ratio": 0.6,
    "negative_ratio": 0.1,
    "neutral_ratio": 0.3,
    "overall_sentiment": 0.3638969421386718,
    "avg_confidence": 0.7825790882110596,
    "total_entries": 10,
    "low_confidence": false,
    "lat": 43.074,
    "lon": -89.384
  },
  {
    "location_tag": "verona",
    "business_type": "gym",
    "positive_ratio": 0.5,
    "negative_ratio": 0.0,
    "neutral_ratio": 0.5,
    "overall_sentiment": 0.3534304499626159,
    "avg_confidence": 0.6600744426250458,
    "total_entries": 2,
    "low_confidence": true,
    "lat": 42.9919,
    "lon": -89.5332
  },
  {
    "location_tag": "north side",
    "business_type": "general business",
    "positive_ratio": 0.6,
    "negative_ratio": 0.2,
    "neutral_ratio": 0.2,
    "overall_sentiment": 0.3521917581558227,
    "avg_confidence": 0.7750860571861267,
    "total_entries": 5,
    "low_confidence": true,
    "lat": 43.11,
    "lon": -89.38
  },
  {
    "location_tag": "willy street",
    "business_type": "restaurant",
    "positive_ratio": 0.4583333333333333,
    "negative_ratio": 0.0833333333333333,
    "neutral_ratio": 0.4583333333333333,
    "overall_sentiment": 0.3468205407261848,
    "avg_confidence": 0.8355717211961746,
    "total_entries": 24,
    "low_confidence": false,
    "lat": 43.0669,
    "lon": -89.3704
  },
  {
    "location_tag": "downtown",
    "business_type": "restaurant",
    "positive_ratio": 0.4758620689655172,
    "negative_ratio": 0.0827586206896551,
    "neutral_ratio": 0.4413793103448276,
    "overall_sentiment": 0.3248258194019054,
    "avg_confidence": 0.7458151728942477,
    "total_entries": 145,
    "low_confidence": false,
    "lat": 43.074,
    "lon": -89.384
  },
  {
    "location_tag": "middleton",
    "business_type": "coffee shop",
    "positive_ratio": 0.3333333333333333,
    "negative_ratio": 0.0,
    "neutral_ratio": 0.6666666666666666,
    "overall_sentiment": 0.3240578770637511,
    "avg_confidence": 0.8061100244522095,
    "total_entries": 3,
    "low_confidence": true,
    "lat": 43.0972,
    "lon": -89.5043
  },
  {
    "location_tag": "downtown",
    "business_type": "daycare",
    "positive_ratio": 0.5,
    "negative_ratio": 0.0,
    "neutral_ratio": 0.5,
    "overall_sentiment": 0.3109483867883682,
    "avg_confidence": 0.6124472767114639,
    "total_entries": 4,
    "low_confidence": true,
    "lat": 43.074,
    "lon": -89.384
  },
  {
    "location_tag": "downtown",
    "business_type": "coffee shop",
    "positive_ratio": 0.4074074074074074,
    "negative_ratio": 0.1111111111111111,
    "neutral_ratio": 0.4814814814814814,
    "overall_sentiment": 0.3042107356919182,
    "avg_confidence": 0.7872208632804729,
    "total_entries": 27,
    "low_confidence": false,
    "lat": 43.074,
    "lon": -89.384
  },
  {
    "location_tag": "middleton",
    "business_type": "gym",
    "positive_ratio": 0.3333333333333333,
    "negative_ratio": 0.0,
    "neutral_ratio": 0.6666666666666666,
    "overall_sentiment": 0.2980028390884399,
    "avg_confidence": 0.7019392848014832,
    "total_entries": 3,
    "low_confidence": true,
    "lat": 43.0972,
    "lon": -89.5043
  },
  {
    "location_tag": "west side",
    "business_type": "bakery",
    "positive_ratio": 0.4,
    "negative_ratio": 0.0,
    "neutral_ratio": 0.6,
    "overall_sentiment": 0.2885133266448975,
    "avg_confidence": 0.7172324657440186,
    "total_entries": 5,
    "low_confidence": true,
    "lat": 43.065,
    "lon": -89.48
  },
  {
    "location_tag": "atwood",
    "business_type": "pharmacy",
    "positive_ratio": 0.3333333333333333,
    "negative_ratio": 0.0,
    "neutral_ratio": 0.6666666666666666,
    "overall_sentiment": 0.2871965765953064,
    "avg_confidence": 0.7416287660598755,
    "total_entries": 3,
    "low_confidence": true,
    "lat": 43.0652,
    "lon": -89.3621
  },
  {
    "location_tag": "campus",
    "business_type": "bakery",
    "positive_ratio": 0.3333333333333333,
    "negative_ratio": 0.0,
    "neutral_ratio": 0.6666666666666666,
    "overall_sentiment": 0.2831111749013265,
    "avg_confidence": 0.6619714498519897,
    "total_entries": 3,
    "low_confidence": true,
    "lat": 43.0766,
    "lon": -89.4125
  },
  {
    "location_tag": "general madison",
    "business_type": "bakery",
    "positive_ratio": 0.4913294797687861,
    "negative_ratio": 0.1791907514450867,
    "neutral_ratio": 0.3294797687861271,
    "overall_sentiment": 0.2758961187277226,
    "avg_confidence": 0.7725010800223819,
    "total_entries": 173,
    "low_confidence": false,
    "lat": 43.0731,
    "lon": -89.4012
  },
  {
    "location_tag": "campus",
    "business_type": "gym",
    "positive_ratio": 0.5,
    "negative_ratio": 0.1,
    "neutral_ratio": 0.4,
    "overall_sentiment": 0.2758512377738952,
    "avg_confidence": 0.6936350405216217,
    "total_entries": 10,
    "low_confidence": false,
    "lat": 43.0766,
    "lon": -89.4125
  },
  {
    "location_tag": "sun prairie",
    "business_type": "general business",
    "positive_ratio": 0.5,
    "negative_ratio": 0.0,
    "neutral_ratio": 0.5,
    "overall_sentiment": 0.2730337679386139,
    "avg_confidence": 0.649840772151947,
    "total_entries": 2,
    "low_confidence": true,
    "lat": 43.1836,
    "lon": -89.2137
  },
  {
    "location_tag": "downtown",
    "business_type": "grocery store",
    "positive_ratio": 0.32,
    "negative_ratio": 0.0,
    "neutral_ratio": 0.68,
    "overall_sentiment": 0.2509794116020202,
    "avg_confidence": 0.7332605731487274,
    "total_entries": 25,
    "low_confidence": false,
    "lat": 43.074,
    "lon": -89.384
  },
  {
    "location_tag": "willy street",
    "business_type": "coworking space",
    "positive_ratio": 0.34375,
    "negative_ratio": 0.09375,
    "neutral_ratio": 0.5625,
    "overall_sentiment": 0.2390715703368187,
    "avg_confidence": 0.8026853650808334,
    "total_entries": 32,
    "low_confidence": false,
    "lat": 43.0669,
    "lon": -89.3704
  },
  {
    "location_tag": "downtown",
    "business_type": "coworking space",
    "positive_ratio": 0.3333333333333333,
    "negative_ratio": 0.0833333333333333,
    "neutral_ratio": 0.5833333333333334,
    "overall_sentiment": 0.2321714982390403,
    "avg_confidence": 0.7941574330131213,
    "total_entries": 24,
    "low_confidence": false,
    "lat": 43.074,
    "lon": -89.384
  },
  {
    "location_tag": "monroe street",
    "business_type": "general business",
    "positive_ratio": 0.4137931034482758,
    "negative_ratio": 0.0689655172413793,
    "neutral_ratio": 0.5172413793103449,
    "overall_sentiment": 0.231028217693855,
    "avg_confidence": 0.7065599797100857,
    "total_entries": 29,
    "low_confidence": false,
    "lat": 43.0505,
    "lon": -89.4076
  },
  {
    "location_tag": "west side",
    "business_type": "late night food",
    "positive_ratio": 0.375,
    "negative_ratio": 0.0,
    "neutral_ratio": 0.625,
    "overall_sentiment": 0.216754138469696,
    "avg_confidence": 0.7245615795254707,
    "total_entries": 8,
    "low_confidence": true,
    "lat": 43.065,
    "lon": -89.48
  },
  {
    "location_tag": "atwood",
    "business_type": "bar",
    "positive_ratio": 0.348314606741573,
    "negative_ratio": 0.1235955056179775,
    "neutral_ratio": 0.5280898876404494,
    "overall_sentiment": 0.2033476199996605,
    "avg_confidence": 0.7934491908952092,
    "total_entries": 89,
    "low_confidence": false,
    "lat": 43.0652,
    "lon": -89.3621
  },
  {
    "location_tag": "west side",
    "business_type": "grocery store",
    "positive_ratio": 0.25,
    "negative_ratio": 0.0,
    "neutral_ratio": 0.75,
    "overall_sentiment": 0.2007837941249211,
    "avg_confidence": 0.7027373636762301,
    "total_entries": 12,
    "low_confidence": false,
    "lat": 43.065,
    "lon": -89.48
  },
  {
    "location_tag": "junction",
    "business_type": "coffee shop",
    "positive_ratio": 0.5,
    "negative_ratio": 0.5,
    "neutral_ratio": 0.0,
    "overall_sentiment": 0.195667564868927,
    "avg_confidence": 0.7868095636367798,
    "total_entries": 2,
    "low_confidence": true,
    "lat": 43.064,
    "lon": -89.51
  },
  {
    "location_tag": "campus",
    "business_type": "bar",
    "positive_ratio": 0.3076923076923077,
    "negative_ratio": 0.0769230769230769,
    "neutral_ratio": 0.6153846153846154,
    "overall_sentiment": 0.1893112338506258,
    "avg_confidence": 0.7503484579233023,
    "total_entries": 13,
    "low_confidence": false,
    "lat": 43.0766,
    "lon": -89.4125
  },
  {
    "location_tag": "monona",
    "business_type": "grocery store",
    "positive_ratio": 0.3333333333333333,
    "negative_ratio": 0.0,
    "neutral_ratio": 0.6666666666666666,
    "overall_sentiment": 0.1845390796661377,
    "avg_confidence": 0.5383498271306356,
    "total_entries": 3,
    "low_confidence": true,
    "lat": 43.062,
    "lon": -89.334
  },
  {
    "location_tag": "general madison",
    "business_type": "restaurant",
    "positive_ratio": 0.3971830985915493,
    "negative_ratio": 0.2112676056338028,
    "neutral_ratio": 0.3915492957746478,
    "overall_sentiment": 0.1843828626081977,
    "avg_confidence": 0.7488845277000481,
    "total_entries": 355,
    "low_confidence": false,
    "lat": 43.0731,
    "lon": -89.4012
  },
  {
    "location_tag": "east washington",
    "business_type": "restaurant",
    "positive_ratio": 0.3333333333333333,
    "negative_ratio": 0.1111111111111111,
    "neutral_ratio": 0.5555555555555556,
    "overall_sentiment": 0.170993619494968,
    "avg_confidence": 0.7523206737306383,
    "total_entries": 9,
    "low_confidence": true,
    "lat": 43.0789,
    "lon": -89.3532
  },
  {
    "location_tag": "general madison",
    "business_type": "coffee shop",
    "positive_ratio": 0.3882978723404255,
    "negative_ratio": 0.175531914893617,
    "neutral_ratio": 0.4361702127659574,
    "overall_sentiment": 0.1695995671634978,
    "avg_confidence": 0.7395746614387695,
    "total_entries": 188,
    "low_confidence": false,
    "lat": 43.0731,
    "lon": -89.4012
  },
  {
    "location_tag": "campus",
    "business_type": "coffee shop",
    "positive_ratio": 0.25,
    "negative_ratio": 0.0,
    "neutral_ratio": 0.75,
    "overall_sentiment": 0.1670494377613067,
    "avg_confidence": 0.6544616222381592,
    "total_entries": 4,
    "low_confidence": true,
    "lat": 43.0766,
    "lon": -89.4125
  },
  {
    "location_tag": "monona",
    "business_type": "restaurant",
    "positive_ratio": 0.2,
    "negative_ratio": 0.0,
    "neutral_ratio": 0.8,
    "overall_sentiment": 0.165721321105957,
    "avg_confidence": 0.692839628458023,
    "total_entries": 5,
    "low_confidence": true,
    "lat": 43.062,
    "lon": -89.334
  },
  {
    "location_tag": "middleton",
    "business_type": "bar",
    "positive_ratio": 0.2,
    "negative_ratio": 0.0,
    "neutral_ratio": 0.8,
    "overall_sentiment": 0.1620664119720459,
    "avg_confidence": 0.6906497359275818,
    "total_entries": 5,
    "low_confidence": true,
    "lat": 43.0972,
    "lon": -89.5043
  },
  {
    "location_tag": "campus",
    "business_type": "restaurant",
    "positive_ratio": 0.2857142857142857,
    "negative_ratio": 0.0,
    "neutral_ratio": 0.7142857142857143,
    "overall_sentiment": 0.1580567019326346,
    "avg_confidence": 0.5917352523122515,
    "total_entries": 7,
    "low_confidence": true,
    "lat": 43.0766,
    "lon": -89.4125
  },
  {
    "location_tag": "atwood",
    "business_type": "restaurant",
    "positive_ratio": 0.2857142857142857,
    "negative_ratio": 0.0952380952380952,
    "neutral_ratio": 0.6190476190476191,
    "overall_sentiment": 0.157175858815511,
    "avg_confidence": 0.800408008552733,
    "total_entries": 21,
    "low_confidence": false,
    "lat": 43.0652,
    "lon": -89.3621
  },
  {
    "location_tag": "middleton",
    "business_type": "general business",
    "positive_ratio": 0.6,
    "negative_ratio": 0.4,
    "neutral_ratio": 0.0,
    "overall_sentiment": 0.1528518140316009,
    "avg_confidence": 0.6868363201618195,
    "total_entries": 5,
    "low_confidence": true,
    "lat": 43.0972,
    "lon": -89.5043
  },
  {
    "location_tag": "fitchburg",
    "business_type": "gym",
    "positive_ratio": 0.25,
    "negative_ratio": 0.0,
    "neutral_ratio": 0.75,
    "overall_sentiment": 0.1523894369602203,
    "avg_confidence": 0.6568938121199608,
    "total_entries": 4,
    "low_confidence": true,
    "lat": 42.9609,
    "lon": -89.4237
  },
  {
    "location_tag": "willy street",
    "business_type": "grocery store",
    "positive_ratio": 0.3076923076923077,
    "negative_ratio": 0.1538461538461538,
    "neutral_ratio": 0.5384615384615384,
    "overall_sentiment": 0.1488296458354363,
    "avg_confidence": 0.6656924233986781,
    "total_entries": 13,
    "low_confidence": false,
    "lat": 43.0669,
    "lon": -89.3704
  },
  {
    "location_tag": "atwood",
    "business_type": "general business",
    "positive_ratio": 0.2444444444444444,
    "negative_ratio": 0.0888888888888888,
    "neutral_ratio": 0.6666666666666666,
    "overall_sentiment": 0.1451099488470289,
    "avg_confidence": 0.7223208990361956,
    "total_entries": 45,
    "low_confidence": false,
    "lat": 43.0652,
    "lon": -89.3621
  },
  {
    "location_tag": "west side",
    "business_type": "bar",
    "positive_ratio": 0.3055555555555556,
    "negative_ratio": 0.1388888888888889,
    "neutral_ratio": 0.5555555555555556,
    "overall_sentiment": 0.1412912654104056,
    "avg_confidence": 0.7416244687305557,
    "total_entries": 108,
    "low_confidence": false,
    "lat": 43.065,
    "lon": -89.48
  },
  {
    "location_tag": "willy street",
    "business_type": "bar",
    "positive_ratio": 0.2978723404255319,
    "negative_ratio": 0.1489361702127659,
    "neutral_ratio": 0.5531914893617021,
    "overall_sentiment": 0.1383386596720269,
    "avg_confidence": 0.7713561375090416,
    "total_entries": 47,
    "low_confidence": false,
    "lat": 43.0669,
    "lon": -89.3704
  },
  {
    "location_tag": "atwood",
    "business_type": "coffee shop",
    "positive_ratio": 0.3333333333333333,
    "negative_ratio": 0.1666666666666666,
    "neutral_ratio": 0.5,
    "overall_sentiment": 0.1345217724641164,
    "avg_confidence": 0.7722816516955694,
    "total_entries": 6,
    "low_confidence": true,
    "lat": 43.0652,
    "lon": -89.3621
  },
  {
    "location_tag": "downtown",
    "business_type": "bar",
    "positive_ratio": 0.3280182232346241,
    "negative_ratio": 0.1799544419134396,
    "neutral_ratio": 0.4920273348519362,
    "overall_sentiment": 0.1337044619889357,
    "avg_confidence": 0.7408411310039511,
    "total_entries": 439,
    "low_confidence": false,
    "lat": 43.074,
    "lon": -89.384
  },
  {
    "location_tag": "downtown",
    "business_type": "late night food",
    "positive_ratio": 0.21875,
    "negative_ratio": 0.09375,
    "neutral_ratio": 0.6875,
    "overall_sentiment": 0.1305570751428604,
    "avg_confidence": 0.7268215296790004,
    "total_entries": 32,
    "low_confidence": false,
    "lat": 43.074,
    "lon": -89.384
  },
  {
    "location_tag": "isthmus",
    "business_type": "bar",
    "positive_ratio": 0.3333333333333333,
    "negative_ratio": 0.1666666666666666,
    "neutral_ratio": 0.5,
    "overall_sentiment": 0.1263235608736674,
    "avg_confidence": 0.7711422940095266,
    "total_entries": 6,
    "low_confidence": true,
    "lat": 43.075,
    "lon": -89.39
  },
  {
    "location_tag": "tenney",
    "business_type": "general business",
    "positive_ratio": 0.2,
    "negative_ratio": 0.0,
    "neutral_ratio": 0.8,
    "overall_sentiment": 0.1244747638702392,
    "avg_confidence": 0.6964072823524475,
    "total_entries": 5,
    "low_confidence": true,
    "lat": 43.085,
    "lon": -89.37
  },
  {
    "location_tag": "east side",
    "business_type": "general business",
    "positive_ratio": 0.3037974683544304,
    "negative_ratio": 0.1518987341772152,
    "neutral_ratio": 0.5443037974683544,
    "overall_sentiment": 0.1234204987936382,
    "avg_confidence": 0.7288412036775034,
    "total_entries": 79,
    "low_confidence": false,
    "lat": 43.075,
    "lon": -89.33
  },
  {
    "location_tag": "camp randall",
    "business_type": "general business",
    "positive_ratio": 0.25,
    "negative_ratio": 0.25,
    "neutral_ratio": 0.5,
    "overall_sentiment": 0.1214584484696388,
    "avg_confidence": 0.6869282498955727,
    "total_entries": 4,
    "low_confidence": true,
    "lat": 43.07,
    "lon": -89.4128
  },
  {
    "location_tag": "sun prairie",
    "business_type": "bar",
    "positive_ratio": 0.3333333333333333,
    "negative_ratio": 0.3333333333333333,
    "neutral_ratio": 0.3333333333333333,
    "overall_sentiment": 0.1035787860552469,
    "avg_confidence": 0.7312252124150594,
    "total_entries": 3,
    "low_confidence": true,
    "lat": 43.1836,
    "lon": -89.2137
  },
  {
    "location_tag": "monroe street",
    "business_type": "restaurant",
    "positive_ratio": 0.2666666666666666,
    "negative_ratio": 0.1333333333333333,
    "neutral_ratio": 0.6,
    "overall_sentiment": 0.1028585433959961,
    "avg_confidence": 0.8434157292048137,
    "total_entries": 15,
    "low_confidence": false,
    "lat": 43.0505,
    "lon": -89.4076
  },
  {
    "location_tag": "east washington",
    "business_type": "grocery store",
    "positive_ratio": 0.25,
    "negative_ratio": 0.25,
    "neutral_ratio": 0.5,
    "overall_sentiment": 0.0959972441196441,
    "avg_confidence": 0.7347706258296967,
    "total_entries": 4,
    "low_confidence": true,
    "lat": 43.0789,
    "lon": -89.3532
  },
  {
    "location_tag": "campus",
    "business_type": "grocery store",
    "positive_ratio": 0.3333333333333333,
    "negative_ratio": 0.1666666666666666,
    "neutral_ratio": 0.5,
    "overall_sentiment": 0.0949266850948333,
    "avg_confidence": 0.7853544652462006,
    "total_entries": 6,
    "low_confidence": true,
    "lat": 43.0766,
    "lon": -89.4125
  },
  {
    "location_tag": "east side",
    "business_type": "coffee shop",
    "positive_ratio": 0.4285714285714285,
    "negative_ratio": 0.2857142857142857,
    "neutral_ratio": 0.2857142857142857,
    "overall_sentiment": 0.0931315422058105,
    "avg_confidence": 0.7786101869174412,
    "total_entries": 7,
    "low_confidence": true,
    "lat": 43.075,
    "lon": -89.33
  },
  {
    "location_tag": "west side",
    "business_type": "daycare",
    "positive_ratio": 0.2,
    "negative_ratio": 0.2,
    "neutral_ratio": 0.6,
    "overall_sentiment": 0.0889719724655151,
    "avg_confidence": 0.7417379975318908,
    "total_entries": 5,
    "low_confidence": true,
    "lat": 43.065,
    "lon": -89.48
  },
  {
    "location_tag": "capitol square",
    "business_type": "late night food",
    "positive_ratio": 0.5,
    "negative_ratio": 0.5,
    "neutral_ratio": 0.0,
    "overall_sentiment": 0.0866995453834533,
    "avg_confidence": 0.7070971131324768,
    "total_entries": 2,
    "low_confidence": true,
    "lat": 43.0748,
    "lon": -89.3839
  },
  {
    "location_tag": "middleton",
    "business_type": "pharmacy",
    "positive_ratio": 0.2727272727272727,
    "negative_ratio": 0.1818181818181818,
    "neutral_ratio": 0.5454545454545454,
    "overall_sentiment": 0.0803636529228904,
    "avg_confidence": 0.6992546103217385,
    "total_entries": 11,
    "low_confidence": false,
    "lat": 43.0972,
    "lon": -89.5043
  },
  {
    "location_tag": "capitol square",
    "business_type": "bar",
    "positive_ratio": 0.25,
    "negative_ratio": 0.25,
    "neutral_ratio": 0.5,
    "overall_sentiment": 0.0679007470607757,
    "avg_confidence": 0.7145889401435852,
    "total_entries": 4,
    "low_confidence": true,
    "lat": 43.0748,
    "lon": -89.3839
  },
  {
    "location_tag": "downtown",
    "business_type": "gym",
    "positive_ratio": 0.2051282051282051,
    "negative_ratio": 0.1538461538461538,
    "neutral_ratio": 0.6410256410256411,
    "overall_sentiment": 0.0527795048860403,
    "avg_confidence": 0.706589210491914,
    "total_entries": 39,
    "low_confidence": false,
    "lat": 43.074,
    "lon": -89.384
  },
  {
    "location_tag": "junction",
    "business_type": "pharmacy",
    "positive_ratio": 0.2,
    "negative_ratio": 0.2,
    "neutral_ratio": 0.6,
    "overall_sentiment": 0.051592743396759,
    "avg_confidence": 0.7976237416267395,
    "total_entries": 5,
    "low_confidence": true,
    "lat": 43.064,
    "lon": -89.51
  },
  {
    "location_tag": "downtown",
    "business_type": "general business",
    "positive_ratio": 0.2524084778420039,
    "negative_ratio": 0.2023121387283237,
    "neutral_ratio": 0.5452793834296724,
    "overall_sentiment": 0.0512160759325891,
    "avg_confidence": 0.723340403482404,
    "total_entries": 519,
    "low_confidence": false,
    "lat": 43.074,
    "lon": -89.384
  },
  {
    "location_tag": "east side",
    "business_type": "bar",
    "positive_ratio": 0.2527472527472527,
    "negative_ratio": 0.2197802197802197,
    "neutral_ratio": 0.5274725274725275,
    "overall_sentiment": 0.0286078564413301,
    "avg_confidence": 0.7450876150812421,
    "total_entries": 91,
    "low_confidence": false,
    "lat": 43.075,
    "lon": -89.33
  },
  {
    "location_tag": "general madison",
    "business_type": "late night food",
    "positive_ratio": 0.3035714285714285,
    "negative_ratio": 0.3035714285714285,
    "neutral_ratio": 0.3928571428571428,
    "overall_sentiment": 0.0262020006775856,
    "avg_confidence": 0.7391337140330246,
    "total_entries": 56,
    "low_confidence": false,
    "lat": 43.0731,
    "lon": -89.4012
  },
  {
    "location_tag": "west side",
    "business_type": "urgent care",
    "positive_ratio": 0.5,
    "negative_ratio": 0.5,
    "neutral_ratio": 0.0,
    "overall_sentiment": 0.0121196508407592,
    "avg_confidence": 0.6365085244178772,
    "total_entries": 2,
    "low_confidence": true,
    "lat": 43.065,
    "lon": -89.48
  },
  {
    "location_tag": "campus",
    "business_type": "general business",
    "positive_ratio": 0.238095238095238,
    "negative_ratio": 0.2142857142857142,
    "neutral_ratio": 0.5476190476190477,
    "overall_sentiment": 0.0092911251953669,
    "avg_confidence": 0.6847315593844369,
    "total_entries": 42,
    "low_confidence": false,
    "lat": 43.0766,
    "lon": -89.4125
  },
  {
    "location_tag": "capitol square",
    "business_type": "coworking space",
    "positive_ratio": 0.0,
    "negative_ratio": 0.0,
    "neutral_ratio": 1.0,
    "overall_sentiment": 0.0,
    "avg_confidence": 0.6681573987007141,
    "total_entries": 1,
    "low_confidence": true,
    "lat": 43.0748,
    "lon": -89.3839
  },
  {
    "location_tag": "west side",
    "business_type": "coworking space",
    "positive_ratio": 0.0,
    "negative_ratio": 0.0,
    "neutral_ratio": 1.0,
    "overall_sentiment": 0.0,
    "avg_confidence": 0.76701520383358,
    "total_entries": 4,
    "low_confidence": true,
    "lat": 43.065,
    "lon": -89.48
  },
  {
    "location_tag": "capitol square",
    "business_type": "urgent care",
    "positive_ratio": 0.0,
    "negative_ratio": 0.0,
    "neutral_ratio": 1.0,
    "overall_sentiment": 0.0,
    "avg_confidence": 0.665304958820343,
    "total_entries": 1,
    "low_confidence": true,
    "lat": 43.0748,
    "lon": -89.3839
  },
  {
    "location_tag": "monroe street",
    "business_type": "bakery",
    "positive_ratio": 0.0,
    "negative_ratio": 0.0,
    "neutral_ratio": 1.0,
    "overall_sentiment": 0.0,
    "avg_confidence": 0.8240222930908203,
    "total_entries": 1,
    "low_confidence": true,
    "lat": 43.0505,
    "lon": -89.4076
  },
  {
    "location_tag": "east side",
    "business_type": "urgent care",
    "positive_ratio": 0.0,
    "negative_ratio": 0.0,
    "neutral_ratio": 1.0,
    "overall_sentiment": 0.0,
    "avg_confidence": 0.7227514982223511,
    "total_entries": 2,
    "low_confidence": true,
    "lat": 43.075,
    "lon": -89.33
  },
  {
    "location_tag": "marquette",
    "business_type": "restaurant",
    "positive_ratio": 0.0,
    "negative_ratio": 0.0,
    "neutral_ratio": 1.0,
    "overall_sentiment": 0.0,
    "avg_confidence": 0.9496946334838868,
    "total_entries": 1,
    "low_confidence": true,
    "lat": 43.08,
    "lon": -89.365
  },
  {
    "location_tag": "atwood",
    "business_type": "gym",
    "positive_ratio": 0.0,
    "negative_ratio": 0.0,
    "neutral_ratio": 1.0,
    "overall_sentiment": 0.0,
    "avg_confidence": 0.6985794305801392,
    "total_entries": 2,
    "low_confidence": true,
    "lat": 43.0652,
    "lon": -89.3621
  },
  {
    "location_tag": "sun prairie",
    "business_type": "pharmacy",
    "positive_ratio": 0.0,
    "negative_ratio": 0.0,
    "neutral_ratio": 1.0,
    "overall_sentiment": 0.0,
    "avg_confidence": 0.5014542937278748,
    "total_entries": 1,
    "low_confidence": true,
    "lat": 43.1836,
    "lon": -89.2137
  },
  {
    "location_tag": "vilas",
    "business_type": "bar",
    "positive_ratio": 0.0,
    "negative_ratio": 0.0,
    "neutral_ratio": 1.0,
    "overall_sentiment": 0.0,
    "avg_confidence": 0.8533128499984741,
    "total_entries": 1,
    "low_confidence": true,
    "lat": 43.055,
    "lon": -89.41
  },
  {
    "location_tag": "verona",
    "business_type": "restaurant",
    "positive_ratio": 0.0,
    "negative_ratio": 0.0,
    "neutral_ratio": 1.0,
    "overall_sentiment": 0.0,
    "avg_confidence": 0.5742564797401428,
    "total_entries": 1,
    "low_confidence": true,
    "lat": 42.9919,
    "lon": -89.5332
  },
  {
    "location_tag": "atwood",
    "business_type": "urgent care",
    "positive_ratio": 0.0,
    "negative_ratio": 0.0,
    "neutral_ratio": 1.0,
    "overall_sentiment": 0.0,
    "avg_confidence": 0.7220779061317444,
    "total_entries": 2,
    "low_confidence": true,
    "lat": 43.0652,
    "lon": -89.3621
  },
  {
    "location_tag": "camp randall",
    "business_type": "bakery",
    "positive_ratio": 0.0,
    "negative_ratio": 0.0,
    "neutral_ratio": 1.0,
    "overall_sentiment": 0.0,
    "avg_confidence": 0.7841866612434387,
    "total_entries": 1,
    "low_confidence": true,
    "lat": 43.07,
    "lon": -89.4128
  },
  {
    "location_tag": "verona",
    "business_type": "coffee shop",
    "positive_ratio": 0.0,
    "negative_ratio": 0.0,
    "neutral_ratio": 1.0,
    "overall_sentiment": 0.0,
    "avg_confidence": 0.649202823638916,
    "total_entries": 1,
    "low_confidence": true,
    "lat": 42.9919,
    "lon": -89.5332
  },
  {
    "location_tag": "waunakee",
    "business_type": "general business",
    "positive_ratio": 0.0,
    "negative_ratio": 0.0,
    "neutral_ratio": 1.0,
    "overall_sentiment": 0.0,
    "avg_confidence": 0.684102455774943,
    "total_entries": 3,
    "low_confidence": true,
    "lat": 43.1919,
    "lon": -89.4554
  },
  {
    "location_tag": "tenney",
    "business_type": "coffee shop",
    "positive_ratio": 0.0,
    "negative_ratio": 0.0,
    "neutral_ratio": 1.0,
    "overall_sentiment": 0.0,
    "avg_confidence": 0.6842732429504395,
    "total_entries": 1,
    "low_confidence": true,
    "lat": 43.085,
    "lon": -89.37
  },
  {
    "location_tag": "camp randall",
    "business_type": "urgent care",
    "positive_ratio": 0.0,
    "negative_ratio": 0.0,
    "neutral_ratio": 1.0,
    "overall_sentiment": 0.0,
    "avg_confidence": 0.5261685848236084,
    "total_entries": 1,
    "low_confidence": true,
    "lat": 43.07,
    "lon": -89.4128
  },
  {
    "location_tag": "atwood",
    "business_type": "late night food",
    "positive_ratio": 0.0,
    "negative_ratio": 0.0,
    "neutral_ratio": 1.0,
    "overall_sentiment": 0.0,
    "avg_confidence": 0.8043442815542221,
    "total_entries": 4,
    "low_confidence": true,
    "lat": 43.0652,
    "lon": -89.3621
  },
  {
    "location_tag": "campus",
    "business_type": "daycare",
    "positive_ratio": 0.0,
    "negative_ratio": 0.0,
    "neutral_ratio": 1.0,
    "overall_sentiment": 0.0,
    "avg_confidence": 0.940886616706848,
    "total_entries": 1,
    "low_confidence": true,
    "lat": 43.0766,
    "lon": -89.4125
  },
  {
    "location_tag": "sun prairie",
    "business_type": "daycare",
    "positive_ratio": 0.0,
    "negative_ratio": 0.0,
    "neutral_ratio": 1.0,
    "overall_sentiment": 0.0,
    "avg_confidence": 0.605846107006073,
    "total_entries": 1,
    "low_confidence": true,
    "lat": 43.1836,
    "lon": -89.2137
  },
  {
    "location_tag": "south side",
    "business_type": "general business",
    "positive_ratio": 0.0,
    "negative_ratio": 0.0,
    "neutral_ratio": 1.0,
    "overall_sentiment": 0.0,
    "avg_confidence": 0.672633022069931,
    "total_entries": 2,
    "low_confidence": true,
    "lat": 43.03,
    "lon": -89.38
  },
  {
    "location_tag": "south side",
    "business_type": "bakery",
    "positive_ratio": 0.0,
    "negative_ratio": 0.0,
    "neutral_ratio": 1.0,
    "overall_sentiment": 0.0,
    "avg_confidence": 0.9201607704162598,
    "total_entries": 1,
    "low_confidence": true,
    "lat": 43.03,
    "lon": -89.38
  },
  {
    "location_tag": "park street",
    "business_type": "coworking space",
    "positive_ratio": 0.0,
    "negative_ratio": 0.0,
    "neutral_ratio": 1.0,
    "overall_sentiment": 0.0,
    "avg_confidence": 0.7127484679222107,
    "total_entries": 1,
    "low_confidence": true,
    "lat": 43.055,
    "lon": -89.39
  },
  {
    "location_tag": "campus",
    "business_type": "convenience store",
    "positive_ratio": 0.0,
    "negative_ratio": 0.0,
    "neutral_ratio": 1.0,
    "overall_sentiment": 0.0,
    "avg_confidence": 0.8935574889183044,
    "total_entries": 1,
    "low_confidence": true,
    "lat": 43.0766,
    "lon": -89.4125
  },
  {
    "location_tag": "north side",
    "business_type": "restaurant",
    "positive_ratio": 0.0,
    "negative_ratio": 0.0,
    "neutral_ratio": 1.0,
    "overall_sentiment": 0.0,
    "avg_confidence": 0.7745001912117004,
    "total_entries": 1,
    "low_confidence": true,
    "lat": 43.11,
    "lon": -89.38
  },
  {
    "location_tag": "north side",
    "business_type": "late night food",
    "positive_ratio": 0.0,
    "negative_ratio": 0.0,
    "neutral_ratio": 1.0,
    "overall_sentiment": 0.0,
    "avg_confidence": 0.7998959422111511,
    "total_entries": 1,
    "low_confidence": true,
    "lat": 43.11,
    "lon": -89.38
  },
  {
    "location_tag": "monona",
    "business_type": "coworking space",
    "positive_ratio": 0.0,
    "negative_ratio": 0.0,
    "neutral_ratio": 1.0,
    "overall_sentiment": 0.0,
    "avg_confidence": 0.5128817558288574,
    "total_entries": 2,
    "low_confidence": true,
    "lat": 43.062,
    "lon": -89.334
  },
  {
    "location_tag": "monona",
    "business_type": "general business",
    "positive_ratio": 0.0,
    "negative_ratio": 0.0,
    "neutral_ratio": 1.0,
    "overall_sentiment": 0.0,
    "avg_confidence": 0.6325750052928925,
    "total_entries": 2,
    "low_confidence": true,
    "lat": 43.062,
    "lon": -89.334
  },
  {
    "location_tag": "vilas",
    "business_type": "daycare",
    "positive_ratio": 0.0,
    "negative_ratio": 0.0,
    "neutral_ratio": 1.0,
    "overall_sentiment": 0.0,
    "avg_confidence": 0.5534713268280029,
    "total_entries": 1,
    "low_confidence": true,
    "lat": 43.055,
    "lon": -89.41
  },
  {
    "location_tag": "cottage grove",
    "business_type": "urgent care",
    "positive_ratio": 0.0,
    "negative_ratio": 0.0,
    "neutral_ratio": 1.0,
    "overall_sentiment": 0.0,
    "avg_confidence": 0.8854931592941284,
    "total_entries": 1,
    "low_confidence": true,
    "lat": 43.0761,
    "lon": -89.1996
  },
  {
    "location_tag": "isthmus",
    "business_type": "grocery store",
    "positive_ratio": 0.0,
    "negative_ratio": 0.0,
    "neutral_ratio": 1.0,
    "overall_sentiment": 0.0,
    "avg_confidence": 0.6587581634521484,
    "total_entries": 1,
    "low_confidence": true,
    "lat": 43.075,
    "lon": -89.39
  },
  {
    "location_tag": "atwood",
    "business_type": "coworking space",
    "positive_ratio": 0.0,
    "negative_ratio": 0.0,
    "neutral_ratio": 1.0,
    "overall_sentiment": 0.0,
    "avg_confidence": 0.8007954657077789,
    "total_entries": 2,
    "low_confidence": true,
    "lat": 43.0652,
    "lon": -89.3621
  },
  {
    "location_tag": "fitchburg",
    "business_type": "coworking space",
    "positive_ratio": 0.0,
    "negative_ratio": 0.0,
    "neutral_ratio": 1.0,
    "overall_sentiment": 0.0,
    "avg_confidence": 0.8215934634208679,
    "total_entries": 1,
    "low_confidence": true,
    "lat": 42.9609,
    "lon": -89.4237
  },
  {
    "location_tag": "west side",
    "business_type": "gym",
    "positive_ratio": 0.0,
    "negative_ratio": 0.0,
    "neutral_ratio": 1.0,
    "overall_sentiment": 0.0,
    "avg_confidence": 0.727702283859253,
    "total_entries": 10,
    "low_confidence": false,
    "lat": 43.065,
    "lon": -89.48
  },
  {
    "location_tag": "fitchburg",
    "business_type": "bar",
    "positive_ratio": 0.0,
    "negative_ratio": 0.0,
    "neutral_ratio": 1.0,
    "overall_sentiment": 0.0,
    "avg_confidence": 0.6424916982650757,
    "total_entries": 2,
    "low_confidence": true,
    "lat": 42.9609,
    "lon": -89.4237
  },
  {
    "location_tag": "fish hatchery",
    "business_type": "gym",
    "positive_ratio": 0.0,
    "negative_ratio": 0.0,
    "neutral_ratio": 1.0,
    "overall_sentiment": 0.0,
    "avg_confidence": 0.8020377159118652,
    "total_entries": 1,
    "low_confidence": true,
    "lat": 43.04,
    "lon": -89.39
  },
  {
    "location_tag": "hilldale",
    "business_type": "bar",
    "positive_ratio": 0.0,
    "negative_ratio": 0.0,
    "neutral_ratio": 1.0,
    "overall_sentiment": 0.0,
    "avg_confidence": 0.4775194525718689,
    "total_entries": 1,
    "low_confidence": true,
    "lat": 43.073,
    "lon": -89.45
  },
  {
    "location_tag": "east side",
    "business_type": "pharmacy",
    "positive_ratio": 0.0,
    "negative_ratio": 0.0,
    "neutral_ratio": 1.0,
    "overall_sentiment": 0.0,
    "avg_confidence": 0.6610862910747528,
    "total_entries": 2,
    "low_confidence": true,
    "lat": 43.075,
    "lon": -89.33
  },
  {
    "location_tag": "east side",
    "business_type": "daycare",
    "positive_ratio": 0.0,
    "negative_ratio": 0.0,
    "neutral_ratio": 1.0,
    "overall_sentiment": 0.0,
    "avg_confidence": 0.9009281992912292,
    "total_entries": 1,
    "low_confidence": true,
    "lat": 43.075,
    "lon": -89.33
  },
  {
    "location_tag": "east side",
    "business_type": "convenience store",
    "positive_ratio": 0.0,
    "negative_ratio": 0.0,
    "neutral_ratio": 1.0,
    "overall_sentiment": 0.0,
    "avg_confidence": 0.7244021495183309,
    "total_entries": 3,
    "low_confidence": true,
    "lat": 43.075,
    "lon": -89.33
  },
  {
    "location_tag": "isthmus",
    "business_type": "coffee shop",
    "positive_ratio": 0.0,
    "negative_ratio": 0.0,
    "neutral_ratio": 1.0,
    "overall_sentiment": 0.0,
    "avg_confidence": 0.8419305682182312,
    "total_entries": 1,
    "low_confidence": true,
    "lat": 43.075,
    "lon": -89.39
  },
  {
    "location_tag": "isthmus",
    "business_type": "general business",
    "positive_ratio": 0.0,
    "negative_ratio": 0.0,
    "neutral_ratio": 1.0,
    "overall_sentiment": 0.0,
    "avg_confidence": 0.6614621400833129,
    "total_entries": 5,
    "low_confidence": true,
    "lat": 43.075,
    "lon": -89.39
  },
  {
    "location_tag": "isthmus",
    "business_type": "late night food",
    "positive_ratio": 0.0,
    "negative_ratio": 0.0,
    "neutral_ratio": 1.0,
    "overall_sentiment": 0.0,
    "avg_confidence": 0.8768313527107239,
    "total_entries": 1,
    "low_confidence": true,
    "lat": 43.075,
    "lon": -89.39
  },
  {
    "location_tag": "willy street",
    "business_type": "bakery",
    "positive_ratio": 0.0,
    "negative_ratio": 0.0,
    "neutral_ratio": 1.0,
    "overall_sentiment": 0.0,
    "avg_confidence": 0.8134667277336121,
    "total_entries": 1,
    "low_confidence": true,
    "lat": 43.0669,
    "lon": -89.3704
  },
  {
    "location_tag": "willy street",
    "business_type": "pharmacy",
    "positive_ratio": 0.0,
    "negative_ratio": 0.0,
    "neutral_ratio": 1.0,
    "overall_sentiment": 0.0,
    "avg_confidence": 0.8235372304916382,
    "total_entries": 1,
    "low_confidence": true,
    "lat": 43.0669,
    "lon": -89.3704
  },
  {
    "location_tag": "east washington",
    "business_type": "daycare",
    "positive_ratio": 0.0,
    "negative_ratio": 0.0,
    "neutral_ratio": 1.0,
    "overall_sentiment": 0.0,
    "avg_confidence": 0.9105361104011536,
    "total_entries": 1,
    "low_confidence": true,
    "lat": 43.0789,
    "lon": -89.3532
  },
  {
    "location_tag": "atwood",
    "business_type": "grocery store",
    "positive_ratio": 0.0,
    "negative_ratio": 0.0,
    "neutral_ratio": 1.0,
    "overall_sentiment": 0.0,
    "avg_confidence": 0.4832413494586944,
    "total_entries": 1,
    "low_confidence": true,
    "lat": 43.0652,
    "lon": -89.3621
  },
  {
    "location_tag": "east washington",
    "business_type": "coworking space",
    "positive_ratio": 0.0,
    "negative_ratio": 0.0,
    "neutral_ratio": 1.0,
    "overall_sentiment": 0.0,
    "avg_confidence": 0.9184898734092712,
    "total_entries": 2,
    "low_confidence": true,
    "lat": 43.0789,
    "lon": -89.3532
  },
  {
    "location_tag": "marquette",
    "business_type": "bar",
    "positive_ratio": 0.0,
    "negative_ratio": 0.0,
    "neutral_ratio": 1.0,
    "overall_sentiment": 0.0,
    "avg_confidence": 0.6282980144023895,
    "total_entries": 2,
    "low_confidence": true,
    "lat": 43.08,
    "lon": -89.365
  },
  {
    "location_tag": "downtown",
    "business_type": "hardware store",
    "positive_ratio": 0.0,
    "negative_ratio": 0.0,
    "neutral_ratio": 1.0,
    "overall_sentiment": 0.0,
    "avg_confidence": 0.7182881683111191,
    "total_entries": 4,
    "low_confidence": true,
    "lat": 43.074,
    "lon": -89.384
  },
  {
    "location_tag": "west side",
    "business_type": "hardware store",
    "positive_ratio": 0.0,
    "negative_ratio": 0.0,
    "neutral_ratio": 1.0,
    "overall_sentiment": 0.0,
    "avg_confidence": 0.5483179092407227,
    "total_entries": 1,
    "low_confidence": true,
    "lat": 43.065,
    "lon": -89.48
  },
  {
    "location_tag": "east washington",
    "business_type": "convenience store",
    "positive_ratio": 0.0,
    "negative_ratio": 0.0,
    "neutral_ratio": 1.0,
    "overall_sentiment": 0.0,
    "avg_confidence": 0.6163522005081177,
    "total_entries": 1,
    "low_confidence": true,
    "lat": 43.0789,
    "lon": -89.3532
  },
  {
    "location_tag": "vilas",
    "business_type": "late night food",
    "positive_ratio": 0.0,
    "negative_ratio": 0.0,
    "neutral_ratio": 1.0,
    "overall_sentiment": 0.0,
    "avg_confidence": 0.7728737592697144,
    "total_entries": 1,
    "low_confidence": true,
    "lat": 43.055,
    "lon": -89.41
  },
  {
    "location_tag": "deforest",
    "business_type": "gym",
    "positive_ratio": 0.0,
    "negative_ratio": 0.0,
    "neutral_ratio": 1.0,
    "overall_sentiment": 0.0,
    "avg_confidence": 0.7894518971443176,
    "total_entries": 1,
    "low_confidence": true,
    "lat": 43.2478,
    "lon": -89.3473
  },
  {
    "location_tag": "deforest",
    "business_type": "coworking space",
    "positive_ratio": 0.0,
    "negative_ratio": 0.0,
    "neutral_ratio": 1.0,
    "overall_sentiment": 0.0,
    "avg_confidence": 0.8588771820068359,
    "total_entries": 1,
    "low_confidence": true,
    "lat": 43.2478,
    "lon": -89.3473
  },
  {
    "location_tag": "fitchburg",
    "business_type": "late night food",
    "positive_ratio": 0.0,
    "negative_ratio": 0.0,
    "neutral_ratio": 1.0,
    "overall_sentiment": 0.0,
    "avg_confidence": 0.6718310713768005,
    "total_entries": 1,
    "low_confidence": true,
    "lat": 42.9609,
    "lon": -89.4237
  },
  {
    "location_tag": "east washington",
    "business_type": "bar",
    "positive_ratio": 0.1694915254237288,
    "negative_ratio": 0.2372881355932203,
    "neutral_ratio": 0.5932203389830508,
    "overall_sentiment": -0.0148104237297833,
    "avg_confidence": 0.7409918055696002,
    "total_entries": 59,
    "low_confidence": false,
    "lat": 43.0789,
    "lon": -89.3532
  },
  {
    "location_tag": "willy street",
    "business_type": "general business",
    "positive_ratio": 0.1739130434782608,
    "negative_ratio": 0.2391304347826087,
    "neutral_ratio": 0.5869565217391305,
    "overall_sentiment": -0.0171465348938237,
    "avg_confidence": 0.7316591098256733,
    "total_entries": 46,
    "low_confidence": false,
    "lat": 43.0669,
    "lon": -89.3704
  },
  {
    "location_tag": "capitol square",
    "business_type": "general business",
    "positive_ratio": 0.25,
    "negative_ratio": 0.25,
    "neutral_ratio": 0.5,
    "overall_sentiment": -0.0193880051374435,
    "avg_confidence": 0.7246991097927094,
    "total_entries": 8,
    "low_confidence": true,
    "lat": 43.0748,
    "lon": -89.3839
  },
  {
    "location_tag": "general madison",
    "business_type": "gym",
    "positive_ratio": 0.216,
    "negative_ratio": 0.264,
    "neutral_ratio": 0.52,
    "overall_sentiment": -0.0208032118082046,
    "avg_confidence": 0.7177889597415924,
    "total_entries": 250,
    "low_confidence": false,
    "lat": 43.0731,
    "lon": -89.4012
  },
  {
    "location_tag": "fitchburg",
    "business_type": "pharmacy",
    "positive_ratio": 0.2,
    "negative_ratio": 0.3,
    "neutral_ratio": 0.5,
    "overall_sentiment": -0.0236504793167114,
    "avg_confidence": 0.7433837741613388,
    "total_entries": 10,
    "low_confidence": false,
    "lat": 42.9609,
    "lon": -89.4237
  },
  {
    "location_tag": "west side",
    "business_type": "general business",
    "positive_ratio": 0.1916666666666666,
    "negative_ratio": 0.2416666666666666,
    "neutral_ratio": 0.5666666666666667,
    "overall_sentiment": -0.0268554081519444,
    "avg_confidence": 0.7093695198496183,
    "total_entries": 120,
    "low_confidence": false,
    "lat": 43.065,
    "lon": -89.48
  },
  {
    "location_tag": "downtown",
    "business_type": "pharmacy",
    "positive_ratio": 0.125,
    "negative_ratio": 0.125,
    "neutral_ratio": 0.75,
    "overall_sentiment": -0.0282028913497924,
    "avg_confidence": 0.7760093957185745,
    "total_entries": 8,
    "low_confidence": true,
    "lat": 43.074,
    "lon": -89.384
  },
  {
    "location_tag": "east washington",
    "business_type": "pharmacy",
    "positive_ratio": 0.3333333333333333,
    "negative_ratio": 0.3333333333333333,
    "neutral_ratio": 0.3333333333333333,
    "overall_sentiment": -0.038120945294698,
    "avg_confidence": 0.6999963919321696,
    "total_entries": 3,
    "low_confidence": true,
    "lat": 43.0789,
    "lon": -89.3532
  },
  {
    "location_tag": "general madison",
    "business_type": "bar",
    "positive_ratio": 0.2135523613963039,
    "negative_ratio": 0.297741273100616,
    "neutral_ratio": 0.4887063655030801,
    "overall_sentiment": -0.0407600303082985,
    "avg_confidence": 0.7079724482197536,
    "total_entries": 487,
    "low_confidence": false,
    "lat": 43.0731,
    "lon": -89.4012
  },
  {
    "location_tag": "east side",
    "business_type": "late night food",
    "positive_ratio": 0.2,
    "negative_ratio": 0.2,
    "neutral_ratio": 0.6,
    "overall_sentiment": -0.0487973928451538,
    "avg_confidence": 0.7818094849586487,
    "total_entries": 5,
    "low_confidence": true,
    "lat": 43.075,
    "lon": -89.33
  },
  {
    "location_tag": "general madison",
    "business_type": "hardware store",
    "positive_ratio": 0.2,
    "negative_ratio": 0.2,
    "neutral_ratio": 0.6,
    "overall_sentiment": -0.0499691367149353,
    "avg_confidence": 0.6834346055984497,
    "total_entries": 5,
    "low_confidence": true,
    "lat": 43.0731,
    "lon": -89.4012
  },
  {
    "location_tag": "campus",
    "business_type": "coworking space",
    "positive_ratio": 0.1666666666666666,
    "negative_ratio": 0.25,
    "neutral_ratio": 0.5833333333333334,
    "overall_sentiment": -0.0541825592517852,
    "avg_confidence": 0.7272360026836395,
    "total_entries": 12,
    "low_confidence": false,
    "lat": 43.0766,
    "lon": -89.4125
  },
  {
    "location_tag": "willy street",
    "business_type": "late night food",
    "positive_ratio": 0.2857142857142857,
    "negative_ratio": 0.4285714285714285,
    "neutral_ratio": 0.2857142857142857,
    "overall_sentiment": -0.0598086033548627,
    "avg_confidence": 0.807387147630964,
    "total_entries": 7,
    "low_confidence": true,
    "lat": 43.0669,
    "lon": -89.3704
  },
  {
    "location_tag": "east washington",
    "business_type": "general business",
    "positive_ratio": 0.0851063829787234,
    "negative_ratio": 0.2127659574468085,
    "neutral_ratio": 0.7021276595744681,
    "overall_sentiment": -0.0801578157759727,
    "avg_confidence": 0.7124896918205504,
    "total_entries": 47,
    "low_confidence": false,
    "lat": 43.0789,
    "lon": -89.3532
  },
  {
    "location_tag": "general madison",
    "business_type": "coworking space",
    "positive_ratio": 0.1034482758620689,
    "negative_ratio": 0.2413793103448276,
    "neutral_ratio": 0.6551724137931034,
    "overall_sentiment": -0.0867814195567164,
    "avg_confidence": 0.7110315890147768,
    "total_entries": 29,
    "low_confidence": false,
    "lat": 43.0731,
    "lon": -89.4012
  },
  {
    "location_tag": "hilldale",
    "business_type": "general business",
    "positive_ratio": 0.1428571428571428,
    "negative_ratio": 0.2857142857142857,
    "neutral_ratio": 0.5714285714285714,
    "overall_sentiment": -0.0924067156655447,
    "avg_confidence": 0.7048732468060085,
    "total_entries": 7,
    "low_confidence": true,
    "lat": 43.073,
    "lon": -89.45
  },
  {
    "location_tag": "general madison",
    "business_type": "general business",
    "positive_ratio": 0.1688654353562005,
    "negative_ratio": 0.3113456464379947,
    "neutral_ratio": 0.5197889182058048,
    "overall_sentiment": -0.0934789172105864,
    "avg_confidence": 0.6895916796139488,
    "total_entries": 379,
    "low_confidence": false,
    "lat": 43.0731,
    "lon": -89.4012
  },
  {
    "location_tag": "east side",
    "business_type": "gym",
    "positive_ratio": 0.2,
    "negative_ratio": 0.4,
    "neutral_ratio": 0.4,
    "overall_sentiment": -0.0951994955539703,
    "avg_confidence": 0.6642167329788208,
    "total_entries": 10,
    "low_confidence": false,
    "lat": 43.075,
    "lon": -89.33
  },
  {
    "location_tag": "west side",
    "business_type": "pharmacy",
    "positive_ratio": 0.5,
    "negative_ratio": 0.5,
    "neutral_ratio": 0.0,
    "overall_sentiment": -0.1133657544851303,
    "avg_confidence": 0.5838188678026199,
    "total_entries": 2,
    "low_confidence": true,
    "lat": 43.065,
    "lon": -89.48
  },
  {
    "location_tag": "general madison",
    "business_type": "grocery store",
    "positive_ratio": 0.1813725490196078,
    "negative_ratio": 0.3676470588235294,
    "neutral_ratio": 0.4509803921568627,
    "overall_sentiment": -0.1249032927786602,
    "avg_confidence": 0.7034354871686768,
    "total_entries": 204,
    "low_confidence": false,
    "lat": 43.0731,
    "lon": -89.4012
  },
  {
    "location_tag": "general madison",
    "business_type": "pharmacy",
    "positive_ratio": 0.2,
    "negative_ratio": 0.4125,
    "neutral_ratio": 0.3875,
    "overall_sentiment": -0.1450338985770941,
    "avg_confidence": 0.7292234228923917,
    "total_entries": 160,
    "low_confidence": false,
    "lat": 43.0731,
    "lon": -89.4012
  },
  {
    "location_tag": "deforest",
    "business_type": "bar",
    "positive_ratio": 0.0,
    "negative_ratio": 0.3333333333333333,
    "neutral_ratio": 0.6666666666666666,
    "overall_sentiment": -0.1649440427621205,
    "avg_confidence": 0.7010205090045929,
    "total_entries": 3,
    "low_confidence": true,
    "lat": 43.2478,
    "lon": -89.3473
  },
  {
    "location_tag": "east side",
    "business_type": "grocery store",
    "positive_ratio": 0.0,
    "negative_ratio": 0.25,
    "neutral_ratio": 0.75,
    "overall_sentiment": -0.1825873404741287,
    "avg_confidence": 0.8247517645359039,
    "total_entries": 4,
    "low_confidence": true,
    "lat": 43.075,
    "lon": -89.33
  },
  {
    "location_tag": "general madison",
    "business_type": "convenience store",
    "positive_ratio": 0.135593220338983,
    "negative_ratio": 0.423728813559322,
    "neutral_ratio": 0.4406779661016949,
    "overall_sentiment": -0.1890633803302958,
    "avg_confidence": 0.7086813389244726,
    "total_entries": 59,
    "low_confidence": false,
    "lat": 43.0731,
    "lon": -89.4012
  },
  {
    "location_tag": "monona",
    "business_type": "gym",
    "positive_ratio": 0.0,
    "negative_ratio": 0.5,
    "neutral_ratio": 0.5,
    "overall_sentiment": -0.250542402267456,
    "avg_confidence": 0.6352097988128662,
    "total_entries": 2,
    "low_confidence": true,
    "lat": 43.062,
    "lon": -89.334
  },
  {
    "location_tag": "general madison",
    "business_type": "urgent care",
    "positive_ratio": 0.1304347826086956,
    "negative_ratio": 0.5217391304347826,
    "neutral_ratio": 0.3478260869565217,
    "overall_sentiment": -0.2701982389325681,
    "avg_confidence": 0.6869882915330969,
    "total_entries": 23,
    "low_confidence": false,
    "lat": 43.0731,
    "lon": -89.4012
  },
  {
    "location_tag": "vilas",
    "business_type": "general business",
    "positive_ratio": 0.0,
    "negative_ratio": 0.5,
    "neutral_ratio": 0.5,
    "overall_sentiment": -0.2956449687480926,
    "avg_confidence": 0.6141003668308258,
    "total_entries": 2,
    "low_confidence": true,
    "lat": 43.055,
    "lon": -89.41
  },
  {
    "location_tag": "general madison",
    "business_type": "daycare",
    "positive_ratio": 0.0,
    "negative_ratio": 0.4,
    "neutral_ratio": 0.6,
    "overall_sentiment": -0.3057205200195312,
    "avg_confidence": 0.7365741848945617,
    "total_entries": 5,
    "low_confidence": true,
    "lat": 43.0731,
    "lon": -89.4012
  },
  {
    "location_tag": "marquette",
    "business_type": "general business",
    "positive_ratio": 0.0,
    "negative_ratio": 0.5,
    "neutral_ratio": 0.5,
    "overall_sentiment": -0.3580674231052398,
    "avg_confidence": 0.7150770425796509,
    "total_entries": 2,
    "low_confidence": true,
    "lat": 43.08,
    "lon": -89.365
  },
  {
    "location_tag": "campus",
    "business_type": "urgent care",
    "positive_ratio": 0.0,
    "negative_ratio": 0.5,
    "neutral_ratio": 0.5,
    "overall_sentiment": -0.4074295163154602,
    "avg_confidence": 0.7553194165229797,
    "total_entries": 2,
    "low_confidence": true,
    "lat": 43.0766,
    "lon": -89.4125
  },
  {
    "location_tag": "atwood",
    "business_type": "convenience store",
    "positive_ratio": 0.0,
    "negative_ratio": 0.5,
    "neutral_ratio": 0.5,
    "overall_sentiment": -0.4406451284885406,
    "avg_confidence": 0.8980096578598022,
    "total_entries": 2,
    "low_confidence": true,
    "lat": 43.0652,
    "lon": -89.3621
  },
  {
    "location_tag": "sun prairie",
    "business_type": "grocery store",
    "positive_ratio": 0.0,
    "negative_ratio": 0.6666666666666666,
    "neutral_ratio": 0.3333333333333333,
    "overall_sentiment": -0.4457866946856181,
    "avg_confidence": 0.6242504715919495,
    "total_entries": 3,
    "low_confidence": true,
    "lat": 43.1836,
    "lon": -89.2137
  },
  {
    "location_tag": "fitchburg",
    "business_type": "general business",
    "positive_ratio": 0.0,
    "negative_ratio": 0.6666666666666666,
    "neutral_ratio": 0.3333333333333333,
    "overall_sentiment": -0.4601609309514363,
    "avg_confidence": 0.6213469008604685,
    "total_entries": 3,
    "low_confidence": true,
    "lat": 42.9609,
    "lon": -89.4237
  },
  {
    "location_tag": "east washington",
    "business_type": "late night food",
    "positive_ratio": 0.0,
    "negative_ratio": 0.6666666666666666,
    "neutral_ratio": 0.3333333333333333,
    "overall_sentiment": -0.473832905292511,
    "avg_confidence": 0.7704776724179586,
    "total_entries": 3,
    "low_confidence": true,
    "lat": 43.0789,
    "lon": -89.3532
  },
  {
    "location_tag": "downtown",
    "business_type": "urgent care",
    "positive_ratio": 0.0,
    "negative_ratio": 0.6666666666666666,
    "neutral_ratio": 0.3333333333333333,
    "overall_sentiment": -0.4932747880617777,
    "avg_confidence": 0.7068774501482645,
    "total_entries": 9,
    "low_confidence": true,
    "lat": 43.074,
    "lon": -89.384
  },
  {
    "location_tag": "sun prairie",
    "business_type": "gym",
    "positive_ratio": 0.0,
    "negative_ratio": 1.0,
    "neutral_ratio": 0.0,
    "overall_sentiment": -0.5157047510147095,
    "avg_confidence": 0.5157047510147095,
    "total_entries": 1,
    "low_confidence": true,
    "lat": 43.1836,
    "lon": -89.2137
  },
  {
    "location_tag": "camp randall",
    "business_type": "gym",
    "positive_ratio": 0.0,
    "negative_ratio": 1.0,
    "neutral_ratio": 0.0,
    "overall_sentiment": -0.5345057249069214,
    "avg_confidence": 0.5345057249069214,
    "total_entries": 1,
    "low_confidence": true,
    "lat": 43.07,
    "lon": -89.4128
  },
  {
    "location_tag": "atwood",
    "business_type": "hardware store",
    "positive_ratio": 0.0,
    "negative_ratio": 1.0,
    "neutral_ratio": 0.0,
    "overall_sentiment": -0.5375238656997681,
    "avg_confidence": 0.5375238656997681,
    "total_entries": 1,
    "low_confidence": true,
    "lat": 43.0652,
    "lon": -89.3621
  },
  {
    "location_tag": "monona",
    "business_type": "urgent care",
    "positive_ratio": 0.0,
    "negative_ratio": 1.0,
    "neutral_ratio": 0.0,
    "overall_sentiment": -0.5390380620956421,
    "avg_confidence": 0.5390380620956421,
    "total_entries": 1,
    "low_confidence": true,
    "lat": 43.062,
    "lon": -89.334
  },
  {
    "location_tag": "junction",
    "business_type": "general business",
    "positive_ratio": 0.0,
    "negative_ratio": 1.0,
    "neutral_ratio": 0.0,
    "overall_sentiment": -0.6001901030540466,
    "avg_confidence": 0.6001901030540466,
    "total_entries": 1,
    "low_confidence": true,
    "lat": 43.064,
    "lon": -89.51
  },
  {
    "location_tag": "east washington",
    "business_type": "hardware store",
    "positive_ratio": 0.0,
    "negative_ratio": 1.0,
    "neutral_ratio": 0.0,
    "overall_sentiment": -0.6203780174255371,
    "avg_confidence": 0.6203780174255371,
    "total_entries": 1,
    "low_confidence": true,
    "lat": 43.0789,
    "lon": -89.3532
  },
  {
    "location_tag": "east washington",
    "business_type": "urgent care",
    "positive_ratio": 0.0,
    "negative_ratio": 1.0,
    "neutral_ratio": 0.0,
    "overall_sentiment": -0.6324350237846375,
    "avg_confidence": 0.6324350237846375,
    "total_entries": 1,
    "low_confidence": true,
    "lat": 43.0789,
    "lon": -89.3532
  },
  {
    "location_tag": "willy street",
    "business_type": "convenience store",
    "positive_ratio": 0.0,
    "negative_ratio": 1.0,
    "neutral_ratio": 0.0,
    "overall_sentiment": -0.6644454002380371,
    "avg_confidence": 0.6644454002380371,
    "total_entries": 1,
    "low_confidence": true,
    "lat": 43.0669,
    "lon": -89.3704
  },
  {
    "location_tag": "east washington",
    "business_type": "gym",
    "positive_ratio": 0.0,
    "negative_ratio": 1.0,
    "neutral_ratio": 0.0,
    "overall_sentiment": -0.6727653741836548,
    "avg_confidence": 0.6727653741836548,
    "total_entries": 2,
    "low_confidence": true,
    "lat": 43.0789,
    "lon": -89.3532
  },
  {
    "location_tag": "willy street",
    "business_type": "gym",
    "positive_ratio": 0.0,
    "negative_ratio": 1.0,
    "neutral_ratio": 0.0,
    "overall_sentiment": -0.7097033262252808,
    "avg_confidence": 0.7097033262252808,
    "total_entries": 1,
    "low_confidence": true,
    "lat": 43.0669,
    "lon": -89.3704
  },
  {
    "location_tag": "monona",
    "business_type": "hardware store",
    "positive_ratio": 0.0,
    "negative_ratio": 1.0,
    "neutral_ratio": 0.0,
    "overall_sentiment": -0.7854911684989929,
    "avg_confidence": 0.7854911684989929,
    "total_entries": 1,
    "low_confidence": true,
    "lat": 43.062,
    "lon": -89.334
  },
  {
    "location_tag": "monroe street",
    "business_type": "urgent care",
    "positive_ratio": 0.0,
    "negative_ratio": 1.0,
    "neutral_ratio": 0.0,
    "overall_sentiment": -0.8037773370742798,
    "avg_confidence": 0.8037773370742798,
    "total_entries": 1,
    "low_confidence": true,
    "lat": 43.0505,
    "lon": -89.4076
  },
  {
    "location_tag": "monona",
    "business_type": "pharmacy",
    "positive_ratio": 0.0,
    "negative_ratio": 1.0,
    "neutral_ratio": 0.0,
    "overall_sentiment": -0.855805516242981,
    "avg_confidence": 0.855805516242981,
    "total_entries": 1,
    "low_confidence": true,
    "lat": 43.062,
    "lon": -89.334
  }
]